airport,latitude,longitude
AIV,33.1065,-88.1978
ALX,32.9147,-85.963
ANB,33.5882,-85.8581
ASN,33.5699,-86.0509
AUO,32.6151,-85.434
BFM,30.6268,-88.0681
BHM,33.5629,-86.7535
DCU,34.6527,-86.9454
DHN,31.3213,-85.4496
ETS,31.2997,-85.8999
EUF,31.9513,-85.1289
GAD,33.9726,-86.089
GUF,30.2905,-87.6718
HAB,34.1176,-87.9982
HSV,34.6372,-86.7751
HUA,34.6787,-86.6848
MGM,32.3006,-86.394
MOB,30.6912,-88.2428
MSL,34.7453,-87.6102
MVC,31.458,-87.351
MXF,32.3829,-86.3658
NHX,30.3891,-87.6353
OZR,31.2757,-85.7134
PLR,33.5588,-86.2491
SEM,32.3439,-86.9878
TCL,33.2206,-87.6114
TGE,32.4919,-85.7756
TOI,31.8604,-86.0121
ABL,67.1063,-157.857
ADK,51.878,-176.646
ADQ,57.75,-152.494
ADR,33.4517,-79.5262
AET,66.5518,-152.622
AGN,57.5036,-134.585
AIN,70.638,-159.995
AKB,52.2203,-174.206
AKI,60.9029,-161.231
AKK,56.9387,-154.183
AKN,58.6768,-156.649
AKP,68.1336,-151.743
ALZ,56.8995,-154.248
ANC,61.1744,-149.996
ANI,61.5816,-159.543
ANN,55.0424,-131.572
ANV,62.6467,-160.191
AOS,57.4715,-153.815
AQY,60.9661,-149.126
ARC,68.1147,-145.579
ATK,70.4673,-157.436
ATT,60.8667,-162.273
ATU,52.8284,173.18
AUK,62.68,-164.66
BCC,63.5733,-156.149
BET,60.7798,-161.838
BGQ,61.5361,-149.814
BIG,63.9945,-145.722
BKC,65.9816,-161.149
BKF,58.5548,-155.777
BMX,59.3612,-155.259
BNF,57.0888,-134.833
BQV,58.4552,-135.885
BRW,71.2854,-156.766
BSW,60.4231,-146.146
BTI,70.134,-143.582
BTT,66.9139,-151.529
BVU,61.1722,-151.044
BYA,64.0783,-141.113
CDB,55.2061,-162.725
CDL,65.9077,-161.926
CDV,60.4918,-145.478
CEM,65.5738,-144.783
CEX,65.0518,-146.047
CGA,55.4788,-133.148
CHP,65.4855,-144.611
CHU,61.5791,-159.216
CIK,66.645,-143.74
CIL,64.8979,-163.703
CKD,61.8679,-158.135
CKU,60.5439,-145.727
CKX,64.0713,-141.952
CLP,58.8337,-158.529
CXC,61.5829,-144.427
CXF,67.2522,-150.204
CYF,60.1492,-164.286
CYM,57.5149,-134.946
CYT,60.081,-142.495
CZC,61.9412,-145.294
CZF,61.7803,-166.039
CZN,62.0712,-142.048
CZO,62.5635,-144.669
CZP,55.9663,-133.797
DCK,66.9433,-156.905
DJN,64.0504,-145.717
DLG,59.0447,-158.505
DRF,60.5889,-152.162
DRG,66.0696,-162.766
DUT,53.9001,-166.544
EAA,64.7764,-141.151
EDA,55.9497,-133.661
EDF,61.251,-149.807
EEK,60.2137,-162.044
EGX,58.1855,-157.375
EHM,58.6464,-162.063
EIL,64.6657,-147.102
ELI,64.6147,-162.272
ELV,58.1952,-136.347
ELW,60.8938,-146.704
EMK,62.7861,-164.491
ENA,60.5731,-151.245
ENN,64.5473,-149.074
EXI,58.4205,-135.449
FAI,64.8151,-147.856
FAK,57.5322,-135.213
FBK,64.8375,-147.614
FLT,62.4526,-157.989
FNR,58.2544,-134.898
FRN,61.2664,-149.653
FWL,62.5093,-153.892
FYU,66.5715,-145.25
GAL,64.7362,-156.937
GAM,63.7668,-171.733
GBH,68.4797,-149.49
GDH,59.747,-158.875
GKN,62.1549,-145.457
GLV,64.5505,-163.007
GMT,65.4021,-161.281
GNU,59.1174,-161.577
GST,58.4253,-135.707
HBH,57.4122,-133.438
HCR,62.1883,-159.775
HED,55.8014,-160.899
HGZ,66.2161,-155.669
HKB,63.9958,-144.693
HNH,58.0961,-135.41
HNS,59.2438,-135.524
HOM,59.6456,-151.477
HPB,61.5239,-166.147
HSL,65.6979,-156.351
HUS,66.0411,-154.263
HWI,58.1274,-134.756
HYG,55.2063,-132.828
HYL,55.4816,-132.646
IAN,66.976,-160.437
ICY,59.969,-141.662
IGG,59.324,-155.902
IKO,52.9416,-168.849
ILI,59.7544,-154.911
IRC,65.8305,-144.076
JBT,60.782,-161.743
JLA,60.4827,-149.719
JNU,58.355,-134.576
KAE,56.973,-133.946
KAL,64.3191,-158.741
KBC,66.274,-145.824
KBE,55.9291,-131.572
KBW,56.2956,-158.401
KCC,56.0032,-132.842
KCL,56.3112,-158.536
KCN,53.4029,-167.52
KCQ,56.255,-158.775
KCR,63.5677,-155.989
KDK,57.8059,-152.374
KEB,59.3521,-151.925
KEK,59.3568,-157.471
KFP,54.8474,-163.41
KGK,59.7266,-157.259
KGX,62.8952,-160.066
KGZ,61.4551,-142.381
KIB,55.8975,-159.489
KKA,64.9395,-161.154
KKB,58.1909,-152.37
KKH,59.9608,-162.881
KKI,60.9048,-161.422
KKK,64.4166,-156.82
KKL,57.367,-154.028
KKU,58.8112,-158.559
KLG,61.5363,-160.341
KLL,59.1281,-156.859
KLN,57.5351,-153.978
KLW,55.5792,-133.076
KMO,58.9902,-159.05
KMY,57.0256,-154.146
KNW,59.4499,-157.328
KOT,63.0306,-163.533
KOY,57.1615,-154.23
KOZ,57.9254,-152.497
KPB,56.3519,-133.623
KPC,65.2537,-166.859
KPN,59.933,-164.031
KPR,58.4901,-152.582
KPV,55.906,-159.163
KPY,57.9301,-153.041
KQA,54.1338,-165.779
KSM,62.0605,-163.302
KTB,55.688,-132.537
KTH,59.9632,-158.477
KTN,55.3556,-131.714
KTS,65.3313,-166.466
KUK,60.8744,-162.524
KVC,55.1163,-162.266
KVL,67.7362,-164.563
KWF,55.2963,-133.243
KWK,59.8765,-163.169
KWN,59.7551,-161.845
KWP,57.7701,-153.549
KWT,60.7903,-161.444
KXA,55.5374,-132.398
KYK,57.5671,-154.45
KYU,64.8761,-157.727
KZB,57.553,-153.746
LIV,65.467,-148.653
LKK,58.9821,-155.121
LMA,63.886,-152.302
LNI,70.9107,-153.242
LUR,68.8751,-166.11
LVD,61.3591,-155.44
MCG,62.9529,-155.606
MCL,63.7326,-148.911
MDO,59.4499,-146.307
MLL,61.8643,-162.026
MLY,64.9976,-150.644
MNT,65.1437,-149.37
MOS,47.777,10.623
MOU,62.0954,-163.682
MRI,61.2135,-149.844
MTM,55.131,-131.578
MTX,64.8068,-147.762
MXY,61.4371,-142.904
MYK,61.3357,-142.687
MYU,60.3714,-166.271
NCN,60.0773,-147.992
NIB,63.0186,-154.358
NIN,60.0207,-151.591
NKI,55.8496,-133.228
NLG,56.0075,-161.16
NME,60.471,-164.701
NNK,58.7329,-157.02
NNL,59.9802,-154.839
NUI,70.21,-151.006
NUL,64.7293,-158.074
NUP,60.9056,-162.44
OBU,66.9123,-156.897
OLH,57.2181,-153.27
OME,64.5122,-165.445
OOK,60.5414,-165.087
ORI,57.8853,-152.846
ORT,62.9613,-141.929
ORV,66.8179,-161.019
OTZ,66.8847,-162.599
PAQ,61.5949,-149.089
PCA,58.9065,-157.714
PDB,59.7896,-154.124
PEC,57.9552,-136.236
PGM,59.3483,-151.832
PHO,68.3488,-166.799
PIP,57.5804,-157.572
PIZ,69.7329,-163.005
PKA,60.7029,-161.778
PML,56.006,-160.561
PPC,66.8141,-150.644
PPV,56.3288,-133.61
PQS,61.9346,-162.9
PSG,56.8017,-132.945
PTA,60.2017,-154.326
PTC,55.803,-133.597
PTD,56.2468,-134.648
PTH,56.9591,-158.633
PTU,59.0114,-161.82
PWR,56.381,-134.651
PYL,60.6853,-147.919
RBY,64.7272,-155.47
RDB,68.0321,-162.899
RDV,61.7881,-157.35
RMP,65.5079,-150.141
RSH,61.7789,-161.319
SCC,70.1947,-148.465
SCM,61.8453,-165.571
SDP,55.315,-160.523
SGW,56.8863,-134.158
SGY,59.4601,-135.316
SHG,66.8881,-157.162
SHH,66.2496,-166.089
SHX,62.6923,-159.569
SIT,57.0471,-135.362
SKK,64.3711,-161.224
SKW,61.9653,-151.191
SLQ,61.7005,-157.166
SMK,63.4901,-162.11
SMU,61.812,-147.507
SNP,57.1673,-170.22
SOL,64.5605,-164.446
SOV,59.4424,-151.704
SRV,61.7897,-156.589
STG,56.5783,-169.662
SVA,63.6864,-170.493
SVS,66.0172,-149.055
SVW,61.0974,-155.574
SWD,60.1269,-149.419
SXP,62.5206,-164.848
SXQ,60.4757,-151.034
SYA,52.7123,174.114
SYB,58.3733,-152.202
TAL,65.1744,-152.109
TCT,62.9932,-156.029
TEH,63.1339,-142.519
TEK,60.8714,-146.69
TKA,62.3205,-150.094
TKE,57.7797,-135.218
TKI,55.9371,-133.327
TKJ,63.3295,-142.954
TKL,58.4897,-133.943
TLA,65.2404,-166.339
TLF,63.3939,-153.269
TLJ,62.8944,-155.977
TLT,61.0968,-160.969
TNC,65.5631,-167.922
TNK,60.5755,-165.272
TOG,59.0528,-160.397
TSG,63.3744,-143.336
TWA,59.0756,-160.273
TWE,65.6793,-164.799
TYE,61.0767,-151.138
UGB,57.4254,-157.74
UGI,57.7304,-153.321
UGS,57.5279,-157.399
UMM,63.3315,-149.127
UMT,69.3711,-152.136
UNK,63.8884,-160.799
UTO,65.9928,-153.704
UUK,70.3308,-149.598
VAK,61.5409,-165.6
VDZ,61.1339,-146.248
VEE,67.0087,-146.366
WAA,65.6226,-168.095
WBB,63.516,-162.278
WBQ,66.3622,-147.407
WCR,67.5045,-148.483
WFB,55.3499,-131.677
WHD,55.9033,-130.01
WKK,59.2826,-158.618
WLK,66.6001,-159.986
WLR,55.6013,-131.637
WMK,55.7396,-132.255
WMO,64.6892,-163.413
WNA,60.6903,-161.979
WOW,61.7542,-150.052
WRG,56.4843,-132.37
WSB,55.5296,-133.642
WSF,61.1821,-149.863
WSM,67.4046,-150.123
WSN,58.7034,-157.008
WTK,67.5661,-162.975
WTL,60.3353,-162.667
WWA,61.5717,-149.54
WWP,56.1163,-133.122
WWT,60.9391,-164.641
WYB,55.9163,-131.801
YAK,59.5033,-139.66
ZNC,60.9807,-159.994
AVW,32.4096,-111.218
AZA,33.3078,-111.655
BGT,34.5959,-113.17
BSQ,31.364,-109.883
BXK,33.4204,-112.686
CFT,32.9528,-109.21
CGZ,32.9549,-111.767
CTW,34.73,-112.035
CWX,32.2454,-109.895
DGL,31.3426,-109.506
DMA,32.1665,-110.883
DUG,31.469,-109.604
DVT,33.6883,-112.083
FHU,31.5885,-110.344
FLG,35.1385,-111.671
GCN,35.9524,-112.147
GCW,35.9904,-113.816
GLB,33.3531,-110.667
GYR,33.4225,-112.376
HBK,34.9407,-110.138
HII,34.5711,-114.358
IFP,35.1574,-114.56
IGM,35.2595,-113.938
INW,35.0219,-110.723
LGF,32.86,-114.397
LUF,33.535,-112.383
MSC,33.4608,-111.728
MVM,36.7164,-110.228
MYH,36.8116,-111.642
MZJ,32.5106,-111.328
OLS,31.4177,-110.848
PGA,36.9261,-111.448
PGS,35.5713,-113.293
PHX,33.4343,-112.012
PJB,34.2568,-111.339
PRC,34.6545,-112.42
PXL,35.7917,-110.423
SAD,32.8548,-109.635
SCF,33.6229,-111.911
SDX,34.8486,-111.788
SJN,34.5186,-109.379
SOW,34.2655,-110.006
TBC,36.0928,-111.383
TUS,32.1161,-110.941
TYZ,34.4528,-110.115
VLE,35.6506,-112.148
WTR,33.8125,-109.987
YUM,32.6566,-114.606
AGO,33.228,-93.217
ARG,36.1247,-90.9251
AWM,35.1351,-90.2344
BVX,35.7262,-91.6473
BYH,35.9643,-89.944
CDH,33.6228,-92.7634
CKK,36.2649,-91.5626
CRT,33.1783,-91.8802
ELD,33.221,-92.8133
FCY,34.942,-90.775
FLP,36.2909,-92.5903
FSM,35.3366,-94.3674
FYV,36.0051,-94.1701
HEE,34.5766,-90.6762
HKA,35.9404,-89.8308
HOT,34.478,-93.0962
HRO,36.2615,-93.1547
JBR,35.8317,-90.6464
LIT,34.7294,-92.2243
LRF,34.9169,-92.1497
MPJ,35.1389,-92.9092
MXA,35.8944,-90.1546
PBF,34.1731,-91.9356
PGR,36.0629,-90.5078
ROG,36.3723,-94.1069
SGT,34.5995,-91.575
SLG,36.1919,-94.49
SPZ,36.1764,-94.1193
SRC,35.2106,-91.7375
TXK,33.4537,-93.991
WMH,36.3689,-92.4705
XNA,36.2819,-94.3068
ACV,40.9781,-124.109
AHC,40.2662,-120.153
APC,38.2132,-122.281
APV,34.5753,-117.186
AUN,38.9548,-121.082
AVX,33.4049,-118.416
BAB,39.1361,-121.437
BFL,35.4336,-119.057
BIH,37.3731,-118.364
BLH,33.6192,-114.717
BLU,39.275,-120.71
BNG,33.9231,-116.851
BUR,34.2007,-118.359
BWC,32.9929,-115.517
BXS,33.259,-116.321
BYS,35.2805,-116.63
BZF,40.5749,-122.408
CCB,34.1116,-117.688
CCR,37.9897,-122.057
CEC,41.7802,-124.237
CIC,39.7954,-121.858
CKE,38.9906,-122.901
CLD,33.1283,-117.28
CLG,36.1631,-120.294
CLR,33.1315,-115.521
CNO,33.9747,-117.637
COA,38.0304,-120.415
CPM,33.89,-118.244
CRO,36.1025,-119.595
CXL,32.6695,-115.513
DAG,34.8537,-116.787
DTH,36.4638,-116.881
EDW,34.9054,-117.884
EED,34.7663,-114.623
EKA,40.8034,-124.113
EMT,34.0861,-118.035
FAT,36.7762,-119.718
FCH,36.7324,-119.82
FOB,39.4743,-123.796
FUL,33.872,-117.98
GNF,39.9439,-120.945
HAF,37.5134,-122.501
HHR,33.9228,-118.335
HLI,36.8933,-121.41
HMT,33.734,-117.023
HWD,37.6592,-122.122
IPL,32.8342,-115.579
IYK,35.6588,-117.83
KIC,36.228,-121.122
LAX,33.9425,-118.408
LGB,33.8177,-118.152
LPC,34.6656,-120.468
LSN,37.0629,-120.869
LVK,37.6934,-121.82
MAE,36.9886,-120.112
MCC,38.6676,-121.401
MCE,37.2847,-120.514
MER,37.3805,-120.568
MHR,38.5539,-121.298
MHS,41.2632,-122.272
MHV,35.0594,-118.152
MIT,35.5074,-119.192
MMH,37.6241,-118.838
MOD,37.6258,-120.954
MRY,36.587,-121.843
MYF,32.8157,-117.14
MYV,39.0978,-121.57
NJK,32.8292,-115.672
NKX,32.8684,-117.143
NLC,36.333,-119.952
NLN,40.7193,-123.928
NOT,38.1436,-122.556
NRC,37.408,-121.109
NRS,32.5667,-117.117
NTD,34.1203,-119.121
NUQ,37.4161,-122.049
NVN,39.8185,-120.353
NZY,32.6992,-117.215
OAK,37.7213,-122.221
OAR,36.6819,-121.762
OCN,33.2173,-117.354
ODC,37.7563,-120.8
ONT,34.056,-117.601
OVE,39.4878,-121.622
OXR,34.2008,-119.207
PAO,37.4611,-122.115
PMD,34.6294,-118.085
POC,34.0916,-117.782
PRB,35.6729,-120.627
PSP,33.8297,-116.507
PTV,36.0296,-119.063
PVF,38.7242,-120.753
PYS,39.7105,-121.6163
RAL,33.9519,-117.445
RBF,34.2638,-116.856
RBK,33.5742,-117.128
RBL,40.1507,-122.252
RDD,40.509,-122.293
RHV,37.3329,-121.819
RIR,33.9897,-117.411
RIV,33.8807,-117.259
RMY,37.5109,-120.04
ROF,41.7304,-122.546
SAC,38.5125,-121.493
SAN,32.7336,-117.19
SAS,33.2414,-115.952
SBA,34.4262,-119.84
SBD,34.0954,-117.235
SBP,35.2368,-120.642
SCK,37.8942,-121.238
SDM,32.5723,-116.98
SEE,32.8262,-116.972
SFO,37.619,-122.375
SIY,41.7781,-122.473
SJC,37.3626,-121.929
SMF,38.6954,-121.591
SMO,34.0158,-118.451
SMX,34.8989,-120.457
SNA,33.6757,-117.868
SNS,36.6628,-121.606
SPA,34.9157,-81.9565
SQA,34.6068,-120.076
SQL,37.5119,-122.25
SRF,38.06,-122.51
STS,38.509,-122.813
SUM,33.995,-80.3613
SUU,38.2627,-121.927
SVE,40.3757,-120.573
SZN,34.0606,-119.915
SZP,34.3472,-119.061
TKF,39.32,-120.14
TLR,36.1563,-119.326
TNP,34.1316,-115.946
TOA,33.8034,-118.34
TRH,35.8125,-117.327
TRM,33.6267,-116.16
TSP,35.135,-118.439
TVL,38.8939,-119.995
UDD,33.7484,-116.275
UKI,39.126,-123.201
VBG,34.7373,-120.584
VCV,34.5975,-117.383
VIS,36.3187,-119.393
VNY,34.2098,-118.49
WHP,34.2593,-118.413
WJF,34.7411,-118.219
WLW,39.5164,-122.218
WVI,36.9357,-121.79
AFF,38.9697,-104.813
AKO,40.1756,-103.222
ALS,37.4349,-105.867
AMK,37.2032,-107.869
APA,39.5701,-104.849
ASE,39.2232,-106.869
BFK,39.7017,-104.752
BJC,39.9088,-105.117
CEZ,37.303,-108.628
CIG,40.4952,-107.522
CNE,38.428,-105.106
COS,38.8058,-104.701
CSE,38.8519,-106.928
DEN,39.8617,-104.673
DRO,37.1515,-107.754
EGE,39.6426,-106.918
FCS,38.6784,-104.757
FNL,40.4518,-105.011
GJT,39.1224,-108.527
GUC,38.5339,-106.933
GWS,39.5083,-107.311
GXY,40.4374,-104.633
HDN,40.4812,-107.218
LAA,38.0697,-102.688
LIC,39.2748,-103.666
LXV,39.2203,-106.317
MTJ,38.5098,-107.894
PGO,37.2863,-107.056
PUB,38.2891,-104.497
RIL,39.5263,-107.727
RNG,40.0932,-108.763
SBS,40.5163,-106.866
SLT,38.5383,-106.049
STK,40.6153,-103.265
TAD,37.2594,-104.341
TEX,37.9538,-107.908
WBU,40.0394,-105.226
WPO,38.8317,-107.646
BDL,41.9392,-72.6833
BDR,41.1635,-73.1262
DXR,41.3715,-73.4822
GON,41.3301,-72.0451
HFD,41.7367,-72.6494
HVN,41.2637,-72.8868
OXC,41.4786,-73.1352
DOV,39.1295,-75.466
GED,38.6892,-75.3589
ILG,39.6787,-75.6065
AAF,29.7275,-85.0275
APF,26.1526,-81.7753
AVO,27.5912,-81.5278
BCT,26.3785,-80.1077
BOW,27.9434,-81.7834
CDK,29.1342,-83.0505
CEW,30.7788,-86.5221
CLW,27.9767,-82.7587
COF,28.2349,-80.6101
COI,28.3416,-80.6855
CRG,30.3363,-81.5144
CTY,29.6355,-83.1048
DAB,29.1799,-81.0581
DSI,30.4001,-86.4715
ECP,30.3571,-85.7954
EGI,30.6504,-86.5229
EYW,24.5561,-81.7596
FLL,26.0726,-80.1527
FMY,26.5866,-81.8633
FPR,27.4951,-80.3683
FPY,30.0693,-83.5806
FXE,26.1973,-80.1707
GIF,28.0629,-81.7533
GNV,29.6901,-82.2718
HST,25.4886,-80.3836
HWO,26.0012,-80.2407
IMM,26.4332,-81.401
ISM,28.2898,-81.4371
JAX,30.4941,-81.6879
KYO,28.2213,-82.3745
LAL,27.9889,-82.0186
LCQ,30.182,-82.5769
LEE,28.8231,-81.8087
LNA,26.593,-80.0851
MCF,27.8493,-82.5212
MCO,28.4294,-81.309
MIA,25.7932,-80.2906
MLB,28.1028,-80.6453
MPB,25.7783,-80.1703
MRK,25.995,-81.6725
MTH,24.7261,-81.0514
NEN,30.3539,-81.8719
NIP,30.2358,-81.6806
NPA,30.3527,-87.3186
NQX,24.5758,-81.6889
NRB,30.3911,-81.4247
NSE,30.7242,-87.0219
NUN,30.4694,-87.3381
OBE,27.2628,-80.8498
OCA,25.3254,-80.2748
OCF,29.1726,-82.2242
OPF,25.907,-80.2784
ORL,28.5455,-81.3329
PAM,30.0696,-85.5754
PBI,26.6832,-80.0956
PGD,26.9202,-81.9905
PHK,26.785,-80.6934
PIE,27.9102,-82.6874
PNS,30.4734,-87.1866
PPM,26.2471,-80.1111
RSW,26.5362,-81.7552
SEF,27.4564,-81.3424
SFB,28.7776,-81.2375
SPG,27.7651,-82.627
SRQ,27.3954,-82.5544
SUA,27.1817,-80.2211
TIX,28.5148,-80.7992
TLH,30.3965,-84.3503
TMB,25.6479,-80.4328
TNT,25.8618,-80.897
TPA,27.9755,-82.5332
TPF,27.9156,-82.4493
UST,29.9592,-81.3398
VNC,27.0716,-82.4403
VPS,30.4832,-86.5254
VQQ,30.2187,-81.8767
VRB,27.6556,-80.4179
ZPH,28.2282,-82.1559
ABY,31.5355,-84.1945
AGS,33.3699,-81.9645
AHN,33.9486,-83.3263
ATL,33.6367,-84.4281
AYS,31.2491,-82.3955
BGE,30.9715,-84.6374
BQK,31.2588,-81.4665
CSG,32.5163,-84.9389
DBN,32.5644,-82.9853
DNL,33.4665,-82.0394
DNN,34.7229,-84.8702
FTY,33.7791,-84.5214
GVL,34.2726,-83.8302
LGC,33.0089,-85.0726
LIY,31.8891,-81.5623
LSF,32.3373,-84.9913
LZU,33.9781,-83.9624
MAC,32.8221,-83.562
MCN,32.6928,-83.6492
MGE,33.9154,-84.5163
MGR,31.0849,-83.8033
MLJ,33.1542,-83.2407
MQW,32.0946,-82.8822
MUL,31.1378,-83.7042
PDK,33.8756,-84.302
PIM,32.8407,-84.8824
RMG,34.3506,-85.158
SAV,32.1276,-81.2021
SSI,31.1518,-81.3913
SVN,32.01,-81.1457
SYV,31.5585,-83.8957
TBR,32.4827,-81.7369
TMA,31.429,-83.4885
TOC,34.5938,-83.2958
TVI,30.9016,-83.8813
VAD,30.9678,-83.193
VDI,32.1927,-82.3712
VLD,30.7825,-83.2767
WDR,33.9829,-83.6674
WRB,32.6401,-83.5919
BKH,22.0228,-159.785
BSF,19.7601,-155.554
FTI,-14.2172,-169.425
HDH,21.5795,-158.197
HHI,21.4835,-158.04
HNL,21.3206,-157.924
HNM,20.7956,-156.014
HPV,22.2092,-159.446
ITO,19.7214,-155.048
JHM,20.9629,-156.673
JRF,21.3074,-158.07
KOA,19.7388,-156.046
LIH,21.976,-159.339
LNY,20.7856,-156.951
LUP,21.211,-156.974
MDY,28.2017,-177.381
MKK,21.1529,-157.096
MUE,20.0013,-155.668
NGF,21.4505,-157.768
OGG,20.8986,-156.43
PAK,21.8969,-159.603
UPP,20.2653,-155.86
WKL,19.9205,-155.861
BOI,43.5644,-116.223
BYI,42.5426,-113.772
CHL,44.523,-114.218
COE,47.7743,-116.82
DBS,44.1666,-112.226
GNG,42.9172,-114.765
ICS,44.4938,-116.016
IDA,43.5136,-112.071
IDH,45.9426,-116.123
LWS,46.3745,-117.015
MLD,42.1666,-112.297
MUO,43.0436,-115.872
MYL,44.8897,-116.101
PIH,42.9098,-112.596
RXE,43.8339,-111.805
SMN,45.1238,-113.881
SUN,43.5044,-114.296
TWF,42.4818,-114.488
ALN,38.8903,-90.046
AUZ,41.7719,-88.4757
BDF,41.2309,-89.6157
BLV,38.5452,-89.8352
BMI,40.4771,-88.9159
CIR,37.0645,-89.2196
CMI,40.0392,-88.2781
CPS,38.5707,-90.1562
DEC,39.8346,-88.8657
DNV,40.1992,-87.5959
DPA,41.9078,-88.2486
DVN,41.6103,-90.5883
ENL,38.5151,-89.0911
EOK,40.4599,-91.4285
FEP,42.2462,-89.582
GBG,40.938,-90.4311
GRE,38.8362,-89.3784
HSB,37.8113,-88.5503
IJX,39.7707,-90.238
IKK,41.0714,-87.8463
JOT,41.5178,-88.1755
LOT,41.6073,-88.0962
LWV,38.7643,-87.6055
MDH,37.7781,-89.252
MDW,41.7861,-87.7525
MLI,41.4485,-90.5075
MQB,40.5201,-90.6524
MTO,39.4779,-88.2792
MVN,38.3219,-88.8535
MWA,37.755,-89.0111
OLY,38.7207,-88.1749
ORD,41.9786,-87.9047
PIA,40.6642,-89.6933
RFD,42.1953,-89.0972
SAR,38.1489,-89.6987
SLO,38.6429,-88.9642
SPI,39.8441,-89.6779
SQI,41.7428,-89.6763
UGN,42.4222,-87.8679
UIN,39.9427,-91.1946
VLA,38.9915,-89.1662
VYS,41.3519,-89.1531
AID,40.1086,-85.613
ANQ,41.6397,-85.0835
BFR,38.84,-86.4454
BMG,39.146,-86.6167
CEV,39.6985,-85.1297
CLU,39.2619,-85.8963
EKI,41.7194,-86.0032
EVV,38.037,-87.5324
FRH,38.5062,-86.6369
FWA,40.9785,-85.1951
GBI,26.6319,-78.3592
GFD,39.7903,-85.7361
GSH,41.5264,-85.7929
GUS,40.6481,-86.1521
HLB,39.3445,-85.2583
HNB,38.249,-86.9537
IND,39.7173,-86.2944
KKT,40.7587,-87.4282
LAF,40.4123,-86.9369
LPO,41.5725,-86.7345
MDN,38.7589,-85.4655
MGC,41.7033,-86.8212
MIE,40.2423,-85.3959
MZZ,40.4899,-85.6797
OKK,40.5282,-86.059
OTN,38.8514,-87.4997
PLY,41.3651,-86.3005
RCR,41.0656,-86.1817
RID,39.7572,-84.8428
RNZ,40.9479,-87.1826
SBN,41.7087,-86.3173
SER,38.9236,-85.9074
SIV,39.1147,-87.4483
SMD,41.1434,-85.1528
VPZ,41.454,-87.0071
AIO,41.4073,-95.0469
ALO,42.5571,-92.4003
AMW,41.992,-93.6218
AXG,43.0779,-94.272
BNW,42.0496,-93.8476
BRL,40.7832,-91.1255
CBF,41.2592,-95.7606
CCY,43.0726,-92.6108
CID,41.8847,-91.7108
CIN,42.0462,-94.789
CSQ,41.0214,-94.3633
CWI,41.8311,-90.3291
DBQ,42.402,-90.7095
DEH,43.2755,-91.7394
DNS,41.9864,-95.3807
DSM,41.534,-93.6631
EBS,42.4366,-93.8689
EFW,42.0102,-94.3426
EST,43.4074,-94.7464
FFL,41.0533,-91.9789
FMS,40.6593,-91.3268
FOD,42.5515,-94.1926
FXY,43.2347,-93.6241
HPT,42.7237,-93.2263
HUD,42.7361,-94.2452
ICL,40.7218,-95.0264
IDG,42.3325,-95.445
IFA,42.4708,-93.27
IOW,41.6392,-91.5465
LRJ,42.778,-96.1937
MCW,43.1578,-93.3313
MIW,42.1128,-92.9178
MPZ,40.9466,-91.5111
MUT,41.3678,-91.1482
MXO,42.2263,-91.1635
OMA,41.3032,-95.8941
OOA,41.0048,-93.3096
OTM,41.1066,-92.4479
POH,36.2456,-90.9553
PRO,41.828,-94.1599
RTL,43.3875,-95.1392
SLB,42.5973,-95.2407
SPW,43.1655,-95.2028
SUX,42.4026,-96.3844
TNU,41.6744,-93.0217
UKN,43.2805,-91.4695
ANY,37.1585,-98.0796
BEC,37.6945,-97.215
CBK,39.4275,-101.047
CEA,37.6486,-97.2506
CFV,37.094,-95.5719
CNK,39.5493,-97.6523
CNU,37.6688,-95.4851
DDC,37.7634,-99.9656
EDK,37.7741,-96.8176
EMP,38.3321,-96.1912
EWK,38.0582,-97.2745
FLV,39.3683,-94.9147
FOE,38.9509,-95.6636
FRI,39.0553,-96.7645
FSK,37.7984,-94.7694
GBD,38.3443,-98.8592
GCK,37.9275,-100.724
GLD,39.3706,-101.699
HLC,39.3788,-99.8315
HUT,38.0655,-97.8606
HYS,38.8422,-99.2732
IAB,37.6219,-97.2682
ICT,37.6499,-97.4331
IDP,37.1584,-95.7784
JCI,38.8309,-94.8903
LBL,37.0442,-100.96
LWC,39.0112,-95.2166
LYO,38.3428,-98.2269
MHK,39.141,-96.6708
MPR,38.3524,-97.6913
OJC,38.8476,-94.7376
PPF,37.3299,-95.5062
PTS,37.4478,-94.7311
PTT,37.7016,-98.7469
RSL,38.8721,-98.8118
SLN,38.791,-97.6522
TOP,39.0687,-95.6225
WLD,37.1686,-97.0376
BRY,37.8143,-85.4996
BWG,36.9645,-86.4197
CEY,36.6646,-88.3728
CVG,39.0488,-84.6678
EKX,37.686,-85.925
FFT,38.1825,-84.9047
FTK,37.9071,-85.9721
GLW,37.0318,-85.9537
HOP,36.6686,-87.4962
LEX,38.0365,-84.6059
LOU,38.228,-85.6637
LOZ,37.0822,-84.0849
OWB,37.7401,-87.1668
PAH,37.0608,-88.7738
PVL,37.5618,-82.5664
SDF,38.1744,-85.736
SME,37.0534,-84.6159
AEX,31.3274,-92.5498
ARA,30.0378,-91.8839
BAD,32.5018,-93.6627
BCS,29.8661,-90.0222
BTR,30.5332,-91.1496
BXA,30.8137,-89.865
CWF,30.2106,-93.1432
DRI,30.8317,-93.3399
DTN,32.5402,-93.745
ESF,31.3949,-92.2958
HUM,29.5665,-90.6604
LCH,30.1261,-93.2233
LFT,30.2053,-91.9876
MLU,32.5109,-92.0377
MSY,29.9934,-90.258
NBG,29.8253,-90.035
NEW,30.0424,-90.0283
OPL,30.5584,-92.0994
POE,31.0448,-93.1917
PTN,29.7095,-91.339
RSN,32.5144,-92.5917
SHV,32.4466,-93.8256
UCE,30.4663,-92.4238
AUG,44.3206,-69.7973
BGR,44.8074,-68.8281
BHB,44.45,-68.3615
CAR,46.8715,-68.0179
FRY,43.9911,-70.9479
HUL,46.1231,-67.7921
ISS,43.9614,-69.7126
LEW,44.0485,-70.2835
LIZ,46.9504,-67.8859
MLT,45.6478,-68.6856
NHZ,43.8922,-69.9386
OLD,44.9528,-68.6743
OWK,44.7155,-69.8665
PNN,45.2007,-67.5644
PQI,46.689,-68.0448
PWM,43.6462,-70.3093
RKD,44.0601,-69.0992
SFM,43.3939,-70.708
WFK,47.2855,-68.3128
WVL,44.5332,-69.6755
ADW,38.8108,-76.867
ANP,38.9429,-76.5684
APG,39.4662,-76.1688
BWI,39.1753,-76.6683
CBE,39.6154,-78.7609
CGE,38.5393,-76.0304
CGS,38.9806,-76.9223
ESN,38.8042,-76.069
FDK,39.4176,-77.3743
FME,39.0854,-76.7594
GAI,39.1683,-77.166
HGR,39.7079,-77.7295
LTW,38.3154,-76.5501
MTN,39.3257,-76.4138
NHK,38.286,-76.4118
OCE,38.3104,-75.124
SBY,38.3405,-75.5103
ACK,41.2531,-70.0602
ARE,18.45,-66.6753
BAF,42.1578,-72.7156
BED,42.47,-71.289
BOS,42.3643,-71.0052
BQN,18.4949,-67.1294
BVY,42.5842,-70.9165
CPX,18.3133,-65.3043
EWB,41.6761,-70.9569
FAJ,18.3089,-65.6619
FMH,41.6584,-70.5214
GBR,42.1842,-73.4032
GDM,42.55,-72.0161
HUC,18.1381,-65.8013
HYA,41.6693,-70.2804
LWM,42.7172,-71.1234
MAZ,18.2557,-67.1485
MMN,42.4618,-71.5184
MVY,41.3931,-70.6143
MXG,42.3432,-71.509
NRR,18.2453,-65.6434
ORH,42.2673,-71.8757
OWD,42.1905,-71.1729
PMX,42.2233,-72.3114
PSF,42.4268,-73.2929
PVC,42.0719,-70.2214
PYM,41.909,-70.7288
UWA,42.282,-72.2148
VQS,18.1348,-65.4936
ACB,44.9886,-85.1984
ADG,41.8677,-84.0773
AMN,43.3221,-84.688
APN,45.0781,-83.5603
ARB,42.223,-83.7456
AZO,42.2349,-85.5521
BEH,42.1286,-86.4285
BTL,42.3073,-85.2515
CAD,44.2753,-85.4189
CIU,46.2508,-84.4724
CMX,47.1684,-88.4891
DRE,46.0093,-83.7439
DTW,42.2125,-83.3533
ECA,44.3128,-83.4223
ESC,45.7227,-87.0937
FNT,42.9654,-83.7436
GDW,43.9706,-84.475
GLR,45.0135,-84.7036
GRR,42.8808,-85.5228
HAI,41.9598,-85.5934
HLM,42.7959,-86.162
HTL,44.3598,-84.6711
IMT,45.8184,-88.1145
IRS,41.8133,-85.439
ISQ,45.9746,-86.1718
IWD,46.5275,-90.1314
JXN,42.2598,-84.4594
LAN,42.7787,-84.5874
LDM,43.9625,-86.4079
MBL,44.2724,-86.2469
MBS,43.5329,-84.0796
MCD,45.8649,-84.6373
MKG,43.1695,-86.2382
MNM,45.1267,-87.6384
MOP,43.6217,-84.7375
MQT,46.3536,-87.3954
MTC,42.6135,-82.8369
NLE,41.8359,-86.2252
OSC,44.4516,-83.3941
PHN,42.911,-82.5289
PLN,45.5709,-84.7967
PTK,42.6655,-83.4201
RCT,43.9,-85.5167
TVC,44.7414,-85.5822
TZC,43.4588,-83.4455
WBK,44.2448,-84.1798
WBR,43.7226,-85.5041
AEL,43.6815,-93.3672
AUM,43.665,-92.9334
AXN,45.8663,-95.3947
BBB,45.3319,-95.6506
BDE,48.7284,-94.6122
BJI,47.5094,-94.9337
BRD,46.3983,-94.1381
CKN,47.8417,-96.6216
DLH,46.8421,-92.1936
DTL,46.8252,-95.8857
EVM,47.4251,-92.4985
FBL,44.3284,-93.3125
FCM,44.8272,-93.4571
FFM,46.2844,-96.1567
FRM,43.6439,-94.4156
GPZ,47.2111,-93.5098
GRM,47.8383,-90.3829
HIB,47.3866,-92.839
ILL,45.1177,-95.1304
INL,48.5662,-93.4031
LYU,47.8245,-91.8307
MIC,45.062,-93.3539
MJQ,43.65,-94.9867
MKT,44.2216,-93.9187
MML,44.4505,-95.8219
MOX,45.5704,-95.9684
MSP,44.882,-93.2218
MVE,44.9691,-95.7103
MWM,43.9134,-95.1094
NSL,43.9868,-95.7826
ONA,44.0772,-91.7083
OTG,43.6559,-95.584
OWA,44.1234,-93.2606
PKD,46.9006,-95.0731
ROX,48.856,-95.697
RRT,48.9414,-95.3484
RST,43.9083,-92.5
RWF,44.5472,-95.0823
STC,45.5466,-94.0599
STP,44.9345,-93.06
SYN,44.4755,-93.0163
TVF,48.0657,-96.185
ULM,44.3196,-94.5023
BIX,30.4104,-88.9244
CBM,33.6438,-88.4438
CKM,34.2997,-90.5123
CRX,34.915,-88.6035
DXE,32.4387,-90.1031
GLH,33.4829,-90.9856
GPT,30.4073,-89.0701
GTR,33.4503,-88.5914
GWO,33.4943,-90.0847
HBG,31.2648,-89.2528
HEZ,31.6137,-91.2973
HKS,32.3345,-90.2222
JAN,32.3112,-90.0759
LMS,33.1462,-89.0625
LUL,31.6726,-89.1722
MCB,31.1785,-90.4719
MEI,32.3326,-88.7519
MMS,34.2315,-90.2896
OLV,34.9787,-89.7869
OSX,33.09,-89.5409
PCU,30.786,-89.5045
PGL,30.4628,-88.5292
PIB,31.4671,-89.3371
RFK,32.9549,-90.8459
TUP,34.2681,-88.7699
UBS,33.4654,-88.3803
UOX,34.3843,-89.5368
UTM,34.681,-90.3467
VKS,32.2393,-90.9284
AIZ,38.096,-92.5495
BKG,36.5321,-93.2005
BUM,38.2898,-94.3401
CGI,37.2253,-89.5708
COU,38.8181,-92.2196
DMO,38.7074,-93.1759
EOS,36.8065,-94.391
FAM,37.7611,-90.4286
IRK,40.0935,-92.5449
JEF,38.5912,-92.1561
JLN,37.1518,-94.4983
KNK,59.4332,-154.804
KNT,36.2259,-90.0366
MAW,36.6006,-89.9922
MBY,39.4639,-92.427
MCI,39.2976,-94.7139
MHL,39.0958,-93.2029
MKC,39.1232,-94.5928
NVD,37.853,-94.3045
OSB,38.1142,-92.6826
PLK,36.6259,-93.2289
POF,36.7739,-90.3249
SGF,37.2457,-93.3886
SIK,36.8989,-89.5618
STJ,39.7719,-94.9097
STL,38.7487,-90.37
SUS,38.6621,-90.652
SZL,38.7303,-93.5479
TBN,37.7416,-92.1407
TRX,40.0836,-93.5908
VIH,38.1274,-91.7695
VRS,38.4278,-92.8752
BDX,45.4725,-105.454
BIL,45.8077,-108.543
BTM,45.9548,-112.497
BZN,45.7775,-111.153
CTB,48.6084,-112.376
DLN,45.2554,-112.553
DRU,46.6208,-113.205
FCA,48.3105,-114.256
GDV,47.1387,-104.807
GGW,48.2125,-106.615
GTF,47.482,-111.371
HLN,46.6068,-111.983
HVR,48.543,-109.762
JDN,47.3288,-106.953
LVM,45.6994,-110.448
LWT,47.0493,-109.467
MLK,48.3669,-107.919
MLS,46.428,-105.886
MSO,46.9163,-114.091
OLF,48.0945,-105.575
PWD,48.7903,-104.534
RPX,46.4751,-108.541
SBX,48.5407,-111.871
SDY,47.7069,-104.193
THM,47.5735,-115.281
WYS,44.6884,-111.118
AHF,40.3395,-99.9065
AIA,42.0532,-102.804
ANW,42.5792,-99.993
BBW,41.4365,-99.6422
BFF,41.874,-103.596
BIE,40.3013,-96.7541
BUB,41.7767,-99.1497
CDR,42.8376,-103.095
EAR,40.727,-99.0068
EPG,40.8675,-96.11
FBY,40.183,-97.1693
FET,41.4491,-96.5202
GRI,40.9675,-98.3096
GRN,42.806,-102.175
HDE,40.4521,-99.3365
HSI,40.6053,-98.4279
IML,40.5093,-101.621
LBF,41.1262,-100.684
LNK,40.851,-96.7592
LXN,40.791,-99.7773
MCK,40.2063,-100.592
MHN,42.0422,-101.059
MIQ,41.195,-96.1148
OFF,41.1183,-95.9125
OFK,41.9855,-97.4351
OGA,41.1195,-101.77
OKS,41.401,-102.355
OLU,41.448,-97.3426
ONL,42.4699,-98.6881
SCB,41.6103,-96.6299
SNY,41.1013,-102.985
VTN,42.8578,-100.548
ASQ,39.468,-117.195
BAM,40.599,-116.874
BLD,35.9475,-114.861
BTY,36.8611,-116.787
CSN,39.1922,-119.734
DRA,36.6194,-116.033
EKO,40.8249,-115.792
ELY,39.2997,-114.842
EUE,39.6042,-116.005
EYR,39.0041,-119.158
FLX,39.4991,-118.749
GAB,38.9241,-117.959
HSH,35.9728,-115.134
HTH,38.5444,-118.634
INS,36.5872,-115.673
KPT,41.976,-114.658
LAS,36.0801,-115.152
LOL,40.0664,-118.565
LSV,36.2362,-115.034
LWL,41.1171,-114.922
MEV,39.0003,-119.751
MFH,36.835,-114.055
NFL,39.4166,-118.701
RNO,39.4991,-119.768
TPH,38.0602,-117.087
UCC,36.9458,-116.038
VGT,36.2107,-115.194
WMC,40.8966,-117.806
XSD,37.7988,-116.781
AFN,42.8051,-72.003
ASH,42.7817,-71.5148
BML,44.5754,-71.1759
CNH,43.3704,-72.3687
CON,43.2027,-71.5023
EEN,42.8984,-72.2708
ERR,44.7925,-71.1642
HIE,44.3676,-71.5445
LCI,43.5727,-71.4189
LEB,43.6261,-72.3042
MHT,42.9326,-71.4357
NWH,40.4625,-74.3306
PSM,43.0779,-70.8233
ACY,39.4576,-74.5772
BLM,40.1869,-74.1249
CDW,40.8752,-74.2814
EWR,40.6925,-74.1686
JVI,40.5244,-74.5984
LDJ,40.6174,-74.2446
LLY,39.9429,-74.8457
MIV,39.3678,-75.0722
MJX,39.9275,-74.2924
MMU,40.7994,-74.4149
NEL,40.0333,-74.3533
PCT,40.3992,-74.6589
TEB,40.8501,-74.0608
TTN,40.2767,-74.8135
WRI,40.0156,-74.5917
WWD,39.0085,-74.9083
ABQ,35.0402,-106.609
ALM,32.8399,-105.991
ATS,32.8525,-104.468
AXX,36.422,-105.29
CAO,36.4462,-103.167
CNM,32.3375,-104.263
CVN,34.4251,-103.079
CVS,34.3828,-103.322
DMN,32.2623,-107.721
ESO,36.03,-106.046
FMN,36.7412,-108.23
FSU,34.4834,-104.217
GNT,35.1673,-107.902
GUP,35.5111,-108.789
HBB,32.7668,-103.209
HMN,32.8525,-106.107
HOB,32.6875,-103.217
LAM,35.8798,-106.269
LRU,32.2894,-106.922
LSB,32.3335,-108.692
LVS,35.6542,-105.142
ONM,34.024,-106.898
ROW,33.3016,-104.531
RTN,36.7415,-104.502
RUI,33.4628,-105.535
SAF,35.6171,-106.089
SVC,32.6365,-108.156
TCC,35.1828,-103.603
TCS,33.2369,-107.272
TSM,36.4582,-105.672
WSD,32.3415,-106.403
ALB,42.7483,-73.8017
ART,43.9919,-76.0217
AXB,44.312,-75.9003
BGM,42.2087,-75.9798
BUF,42.9405,-78.7322
COP,42.6292,-74.891
CTO,40.9151,-72.7919
CTX,42.5926,-76.2149
DKK,42.4933,-79.272
DSV,42.5709,-77.7131
ELM,42.1599,-76.8916
ELZ,42.1095,-77.99
FID,41.2513,-72.0316
FOK,40.8437,-72.6318
FRG,40.7288,-73.4134
GFL,43.3412,-73.6103
HCC,42.2913,-73.7103
HPN,41.067,-73.7076
HTO,40.9596,-72.2518
IAG,43.1073,-78.9462
ISP,40.7952,-73.1002
ITH,42.491,-76.4584
JFK,40.6397,-73.7789
JHW,42.1534,-79.258
LGA,40.775,-73.875
LKP,44.2645,-73.9619
MGJ,41.51,-74.2646
MSS,44.9358,-74.8456
MSV,41.7016,-74.795
MTP,41.0765,-71.9208
OGS,44.6819,-75.4655
OIC,42.5666,-75.5241
OLE,42.2422,-78.3716
ONH,42.5247,-75.0644
PBG,44.6509,-73.4681
POU,41.6266,-73.8842
RME,43.2338,-75.407
ROC,43.1189,-77.6724
RSX,44.9917,-73.3635
SCH,42.8525,-73.9289
SLK,44.3853,-74.2062
SWF,41.5042,-74.1047
SXY,42.3026,-75.416
SYR,43.1112,-76.1063
WSH,40.8219,-72.8694
AVL,35.4362,-82.5418
CLT,35.214,-80.9431
CTZ,34.9756,-78.3646
DUF,36.2535,-75.7885
ECG,36.2606,-76.1746
EDE,36.0277,-76.5671
EWN,35.073,-77.0429
FAY,34.9912,-78.8803
FBG,35.1318,-78.9367
FFA,36.0182,-75.6713
GSB,35.3394,-77.9606
GSO,36.0978,-79.9373
HFF,35.0363,-79.4978
HKY,35.7411,-81.3895
HNC,35.2328,-75.6178
IKB,36.2228,-81.0983
ILM,34.2706,-77.9026
INT,36.1337,-80.222
ISO,35.3314,-77.6088
LBT,34.6099,-79.0594
LFN,36.0233,-78.3303
MEO,35.919,-75.6955
MRN,35.8202,-81.6114
MXE,34.7919,-79.3658
OAJ,34.8292,-77.6121
OCW,35.5705,-77.0498
PGV,35.6352,-77.3853
POB,35.1709,-79.0145
QWG,35.2138,-80.6701
RDU,35.8776,-78.7875
RWI,35.8563,-77.8919
RZZ,36.4395,-77.7093
SOP,35.2374,-79.3912
SRW,35.6459,-80.5203
SVH,35.7653,-80.9539
USA,35.3878,-80.7091
ASY,46.0239,-99.3526
BIS,46.7727,-100.746
BWM,46.1655,-103.301
DIK,46.7974,-102.802
DVL,48.1142,-98.9088
FAR,46.9207,-96.8158
GFK,47.9493,-97.1761
ISN,48.1779,-103.642
JMS,46.9297,-98.6782
MIB,48.4156,-101.358
MOT,48.2594,-101.28
PMB,48.9425,-97.2408
RDR,47.9611,-97.4012
VEX,48.3805,-102.898
WAH,46.2441,-96.6074
XWA,48.2597,-103.751
AKC,41.0375,-81.4669
AOH,40.7069,-84.0267
ATO,39.211,-82.2314
AXV,40.4934,-84.2989
BJJ,40.8748,-81.8883
BKL,41.5175,-81.6833
CAK,40.9161,-81.4422
CGF,41.5651,-81.4864
CLE,41.4117,-81.8498
CMH,39.998,-82.8919
DAY,39.9024,-84.2194
DFI,41.3375,-84.4288
FDY,41.0135,-83.6687
FFO,39.8261,-84.0483
GQQ,40.7534,-82.7238
HAO,39.3638,-84.522
HTW,38.4193,-82.4943
ILN,39.4279,-83.7921
JFN,41.778,-80.6955
LCK,39.8138,-82.9278
LNN,41.684,-81.3897
LUK,39.1033,-84.4186
MFD,40.8214,-82.5166
MGY,39.589,-84.2249
MNN,40.6162,-83.0635
MWO,39.531,-84.3953
OSU,40.0798,-83.073
OXD,39.5023,-84.7844
PHD,40.4709,-81.4197
PMH,38.8405,-82.8473
SGH,39.8403,-83.8402
SKY,41.4333,-82.6522
TDZ,41.5649,-83.4823
TOL,41.5868,-83.8078
YNG,41.2607,-80.6791
ZZV,39.9444,-81.8921
ADM,34.303,-97.0196
ADT,34.8043,-96.6713
AHD,34.147,-97.1227
ATE,34.1926,-95.6499
AXS,34.698,-99.3385
BVO,36.7625,-96.0112
BWL,36.7959,-97.317
CHK,35.0974,-97.9677
CKA,36.7439,-98.1231
CLK,35.5383,-98.9327
CSM,35.3398,-99.2005
CUH,35.9499,-96.7731
DUA,33.9423,-96.3945
DUC,34.4709,-97.9599
ELK,35.4308,-99.3943
END,36.3392,-97.9165
FDR,34.352,-98.9839
FSI,34.6498,-98.4022
GAG,36.2955,-99.7764
GOK,35.8498,-97.4156
GUY,36.6851,-101.508
HBR,34.9913,-99.0513
HUJ,34.0348,-95.5419
LAW,34.5677,-98.4166
LTS,34.6671,-99.2667
MIO,36.9092,-94.8875
MKO,35.6565,-95.3667
MLC,34.8824,-95.7835
NRI,36.5776,-94.8619
OKC,35.3931,-97.6007
OKM,35.6681,-95.9487
OUN,35.2456,-97.4721
PNC,36.732,-97.0998
PWA,35.5342,-97.6471
RKR,35.0216,-94.6213
RVS,36.0396,-95.9846
SNL,35.3579,-96.9428
SUD,35.7896,-96.6557
SWO,36.1612,-97.0857
TIK,35.4147,-97.3866
TUL,36.1984,-95.8881
WDG,36.3792,-97.7911
WWR,36.438,-99.5227
AHM,42.1903,-122.661
AST,46.158,-123.879
BDY,43.0865,-124.408
BKE,44.8373,-117.809
BNO,43.5919,-118.955
BOK,42.0746,-124.29
CHZ,42.5794,-121.879
CVO,44.4972,-123.29
CZK,45.6769,-121.879
DLS,45.6185,-121.167
EUG,44.1246,-123.212
FMU,43.9828,-124.111
GOL,42.4134,-124.424
GTP,42.5101,-123.388
HES,45.8282,-119.259
HIO,45.5404,-122.95
JDA,44.4042,-118.963
LGD,45.2902,-118.007
LKV,42.1611,-120.399
LMT,42.1561,-121.733
MDJ,44.6702,-121.155
MFR,42.3742,-122.873
ONO,44.0205,-117.014
ONP,44.5804,-124.058
OTH,43.4171,-124.246
OTK,45.4182,-123.814
PDT,45.6951,-118.841
PDX,45.5887,-122.598
PFC,45.1998,-123.962
PRZ,44.287,-120.904
RBG,43.2388,-123.356
RDM,44.2541,-121.15
REO,42.5777,-117.885
SLE,44.9095,-123.003
SUO,43.8763,-121.453
TTD,45.5494,-122.401
ABE,40.6521,-75.4408
AGC,40.3544,-79.9302
AOO,40.2964,-78.32
AVP,41.3385,-75.7234
BBX,40.1375,-75.2651
BFD,41.8031,-78.6401
BFP,40.7725,-80.3914
BTP,40.7769,-79.9497
CTH,39.979,-75.8655
DUJ,41.1783,-78.8987
DYL,40.333,-75.1223
ERI,42.0831,-80.1739
ESP,41.0358,-75.1606
FKL,41.3779,-79.8604
GTY,39.8409,-77.2742
HAR,40.2171,-76.8515
HZL,40.9868,-75.9949
IDI,40.6322,-79.1055
IPT,41.2418,-76.9211
JST,40.3161,-78.8339
LBE,40.2759,-79.4048
LHV,41.1356,-77.4223
LNS,40.1217,-76.2961
MDT,40.1935,-76.7634
MEJ,41.6265,-80.2147
MPO,41.1375,-75.3789
MUI,40.4348,-76.5694
PHL,39.8719,-75.2411
PIT,40.4915,-80.2329
PNE,40.0819,-75.0106
PSB,40.8835,-78.0863
PSQ,39.859,-75.2996
PTW,40.2396,-75.5567
RDG,40.3785,-75.9652
RED,40.6774,-77.6268
SCE,40.8493,-77.8487
SEG,40.8206,-76.8639
STQ,41.4125,-78.5026
THV,39.917,-76.873
UKT,40.4352,-75.3819
WAY,39.9001,-80.1331
WBW,41.2972,-75.8512
WSG,40.1365,-80.2902
BID,41.1681,-71.5778
NCO,41.5971,-71.4121
NPT,41.5324,-71.2815
PVD,41.7326,-71.4204
SFZ,41.9208,-71.4914
WST,41.3496,-71.8034
AIK,33.6494,-81.685
AND,34.4946,-82.7094
BFT,32.4122,-80.6344
BNL,33.2578,-81.3883
BTN,34.6217,-79.7344
CAE,33.9388,-81.1195
CDN,34.2836,-80.5649
CEU,34.6719,-82.8865
CHS,32.8986,-80.0405
CRE,33.8117,-78.7239
CUB,33.9705,-80.9952
DLL,34.4491,-79.3686
FLO,34.1854,-79.7239
GDC,34.7583,-82.3764
GGE,33.3117,-79.3196
GMU,34.8479,-82.35
GRD,34.2487,-82.1591
GSP,34.8957,-82.2189
HCW,34.7129,-79.957
HHH,32.2244,-80.6975
HVS,34.4031,-80.1192
MMT,33.9208,-80.8013
MYR,33.6797,-78.9283
OGB,33.4568,-80.8595
RBW,32.921,-80.6406
RKH,34.9878,-81.0572
SSC,33.9727,-80.4706
USC,40.2249,-83.3519
ABR,45.4491,-98.4218
ATY,44.914,-97.1547
BKX,44.3048,-96.8169
CTK,43.3089,-96.571
FSD,43.582,-96.7419
HON,44.3852,-98.2285
LEM,45.9187,-102.106
LQK,34.81,-82.7029
MBG,45.5465,-100.408
MHE,43.7748,-98.0386
PHP,44.0486,-101.599
PIR,44.3827,-100.286
RAP,44.0453,-103.057
RCA,44.145,-103.104
SPF,44.4803,-103.783
TTO,45.8152,-97.7431
XMD,44.016,-97.0859
XPR,43.0225,-102.511
YKN,42.9167,-97.3859
APT,35.0607,-85.5853
BNA,36.1245,-86.6782
CHA,35.0353,-85.2038
CKV,36.6219,-87.415
CSV,35.9513,-85.085
FYM,35.0597,-86.564
GCY,36.193,-82.8151
GHM,35.8374,-87.4454
GKT,35.8578,-83.5287
MEM,35.0424,-89.9767
MKL,35.5999,-88.9156
MMI,35.3973,-84.5626
MOR,36.1795,-83.3752
MQY,36.009,-86.5201
MRC,35.5541,-87.1789
NQA,35.3567,-89.8703
PHT,36.3382,-88.3829
RKW,35.9223,-84.6897
RNC,35.6987,-85.8438
SYI,35.5601,-86.4425
THA,35.3801,-86.2464
TRI,36.4752,-82.4074
TYS,35.811,-83.994
UCY,36.3818,-88.9854
UOS,35.2051,-85.8981
ABI,32.4113,-99.6819
ACT,31.6113,-97.2305
ADS,32.9686,-96.8364
AFW,32.9876,-97.3188
ALE,30.3842,-103.684
ALI,27.7409,-98.0269
AMA,35.2194,-101.706
ASL,32.5205,-94.3078
AUS,30.1945,-97.6699
BBC,28.9733,-95.8635
BBD,31.1793,-99.3239
BGD,35.7009,-101.394
BIF,31.8495,-106.38
BKD,32.719,-98.891
BMT,30.0707,-94.2158
BPT,29.9508,-94.0207
BRO,25.9068,-97.4259
BWD,31.7936,-98.9565
BZT,28.9822,-95.5797
CCG,31.4151,-102.363
CDS,34.4338,-100.288
CFD,30.7157,-96.3314
CLL,30.5886,-96.3638
CNW,31.6378,-97.0741
COM,31.8411,-99.4036
COT,28.4567,-99.2203
CRP,27.7704,-97.5012
CRS,32.0281,-96.4006
CUX,27.7218,-97.5121
CXO,30.3518,-95.4145
CZT,28.5222,-99.8236
DAL,32.8471,-96.8518
DFW,32.8968,-97.038
DHT,36.0226,-102.547
DLF,29.3595,-100.778
DRT,29.3742,-100.927
DWH,30.0618,-95.5528
DYS,32.4208,-99.8546
EFD,29.6073,-95.1588
EGP,28.8572,-100.512
ELA,29.6006,-96.3219
ELP,31.8072,-106.378
ERV,29.9767,-99.0857
ETN,32.4135,-98.8098
EVA,30.321,-94.0735
FST,30.9157,-102.916
FTW,32.8198,-97.3624
FWH,32.7692,-97.4415
GGG,32.384,-94.7115
GLE,33.6514,-97.197
GLS,29.2653,-94.8604
GRK,31.0672,-97.8289
GVT,33.0678,-96.0653
HCA,32.2126,-101.522
HLR,31.1387,-97.7145
HOU,29.6454,-95.2789
HPY,29.7861,-94.9527
HRL,26.2285,-97.6544
HTV,30.7469,-95.5872
IAH,29.9844,-95.3414
ILE,31.0858,-97.6865
INK,31.7796,-103.201
IRB,30.9057,-101.892
IWS,29.8182,-95.6726
JAS,30.8857,-94.0349
JCT,30.5113,-99.7635
JCY,30.2518,-98.6225
JKV,31.8693,-95.2174
KIP,33.8578,-98.4904
LBB,33.6636,-101.823
LFK,31.234,-94.75
LJN,29.1086,-95.4621
LRD,27.5438,-99.4616
MAF,31.9425,-102.202
MDD,32.0365,-102.101
MFE,26.1758,-98.2386
MGI,28.323,-96.464
MIF,31.5825,-102.909
MPS,32.8981,-79.7828
MRF,30.3711,-104.018
MWL,32.7816,-98.0602
NGP,27.6926,-97.2911
NGW,27.7027,-97.4389
NIR,28.3624,-97.6619
NQI,27.5072,-97.8097
OCH,31.578,-94.7095
ONY,33.3522,-98.7915
OZA,30.7353,-101.203
PEQ,31.3824,-103.511
PNX,33.7141,-96.6737
PPA,35.613,-100.996
PRX,33.6366,-95.4508
PSN,31.7797,-95.7063
PSX,28.7275,-96.251
PVW,34.1681,-101.717
RBD,32.6809,-96.8682
RCK,30.6316,-96.9897
REE,33.5903,-102.037
RFG,28.2886,-97.318
RGR,32.4526,-98.6828
RKP,28.0868,-97.0446
RND,29.5297,-98.2789
SAT,29.5337,-98.4698
SEP,32.2153,-98.1777
SGR,29.6223,-95.6565
SJT,31.3577,-100.496
SKF,29.3842,-98.5811
SLR,33.1598,-95.6211
SNK,32.6934,-100.95
SPS,33.9888,-98.4919
SSF,29.337,-98.4711
SWW,32.4674,-100.467
TDW,35.1699,-101.826
TPL,31.1525,-97.4078
TRL,32.7092,-96.2674
TYR,32.3541,-95.4024
UVA,29.2113,-99.7436
VCT,28.8526,-96.9185
VHN,31.0578,-104.784
WEA,32.7463,-97.6824
WHT,29.2543,-96.1544
WIB,34.2257,-99.2838
BCE,37.7064,-112.145
BDG,37.5833,-109.483
BFG,37.5458,-110.713
BMC,41.5524,-112.062
BTF,40.8694,-111.927
CDC,37.701,-113.099
CNY,38.755,-109.755
DPG,40.1994,-112.937
DTA,39.3806,-112.508
ENV,40.7187,-114.031
FIL,38.9583,-112.363
GMV,37.0167,-110.201
HIF,41.124,-111.973
HVE,38.418,-110.704
KNB,37.0106,-112.531
LGU,41.7912,-111.852
MLF,38.6097,-112.986
MSD,39.5266,-111.476
MXC,37.9324,-109.341
NPH,39.7388,-111.872
NTJ,39.3291,-111.615
OGD,41.1959,-112.012
PNU,37.8452,-112.392
PUC,39.6139,-110.751
PVU,40.2192,-111.723
RIF,38.7364,-112.099
ROL,40.2783,-110.051
RVR,38.9614,-110.227
SBO,39.0291,-111.838
SGU,37.0364,-113.51
SLC,40.7884,-111.978
VEL,40.4409,-109.51
BTV,44.4719,-73.1533
EFK,44.8888,-72.2292
LLX,44.5691,-72.018
MPV,44.2035,-72.5623
MVL,44.5346,-72.614
RUT,43.5294,-72.9496
VSF,43.3436,-72.5173
APH,38.0689,-77.3183
BCB,37.2076,-80.4078
BKT,37.0742,-77.9575
CHO,38.1386,-78.4529
DAA,38.715,-77.181
DAN,36.5729,-79.3361
DCA,38.8522,-77.0378
DGN,38.3325,-77.0372
FAF,37.1325,-76.6088
FKN,36.6981,-76.9038
FRR,38.9175,-78.2535
GVE,38.156,-78.1658
HSP,37.9514,-79.8339
IAD,38.9445,-77.4558
LFI,37.0829,-76.3605
LNP,36.9875,-82.53
LOW,38.0098,-77.9701
LVL,36.7728,-77.7943
LYH,37.3267,-79.2004
MFV,37.6469,-75.7611
MNZ,38.7214,-77.5154
NGU,36.9376,-76.2893
NTU,36.8207,-76.0335
NYG,38.5017,-77.3053
ORF,36.8946,-76.2012
PHF,37.1319,-76.493
PSK,37.1373,-80.6785
PTB,37.1838,-77.5074
RIC,37.5052,-77.3197
ROA,37.3255,-79.9754
SHD,38.2638,-78.8964
VJI,36.6871,-82.0333
WAL,37.9402,-75.4664
WGO,39.1435,-78.1444
ALW,46.0949,-118.288
BFI,47.53,-122.302
BLI,48.7928,-122.538
BYW,48.579,-122.826
CKR,48.5978,-122.998
CLM,48.1202,-123.5
CLS,46.677,-122.983
CWS,48.4901,-122.832
DHB,48.6167,-123.003
DTR,48.4998,-122.814
EAT,47.3989,-120.207
ELN,47.033,-120.531
EPH,47.3076,-119.516
ESD,48.7082,-122.91
ESW,47.2542,-121.186
FBS,48.5373,-123.01
FRD,48.522,-123.024
GCD,47.922,-119.083
GEG,47.6199,-117.534
GRF,47.0792,-122.581
HQM,46.9712,-123.937
KEH,47.7548,-122.259
KLS,46.118,-122.898
LKE,47.629,-122.339
LPS,48.4839,-122.938
MVW,48.4709,-122.421
MWH,47.2077,-119.32
NUW,48.3518,-122.656
ODW,48.2515,-122.674
OLM,46.9694,-122.903
OMK,48.4644,-119.518
OTS,48.499,-122.662
PAE,47.9063,-122.282
PSC,46.2647,-119.119
PUL,47.734,-122.647
PUW,46.7439,-117.11
PWT,47.4902,-122.765
RCE,48.6123,-123.139
RLD,46.3056,-119.304
RNT,47.4931,-122.216
RSJ,48.6457,-122.868
SEA,47.449,-122.309
SFF,47.6828,-117.323
SHN,47.2336,-123.148
SKA,47.6151,-117.656
SQV,48.0981,-123.187
SSW,48.6729,-123.176
TCM,47.1377,-122.476
TDO,46.4772,-122.806
TIW,47.2679,-122.578
TWD,48.0538,-122.811
UIL,47.9366,-124.563
WDN,48.7118,-123.018
WSX,48.6179,-122.953
YKM,46.5682,-120.544
BKW,37.7873,-81.1242
BLF,37.2958,-81.2077
CKB,39.2966,-80.2281
CRW,38.3731,-81.5932
EKN,38.8894,-79.8571
GWV,39.9487,-80.7595
HLG,40.175,-80.6463
HTS,38.3667,-82.558
LWB,37.8583,-80.3995
MGW,39.6429,-79.9163
MRB,39.4019,-77.9846
ODM,39.2808,-79.3374
PGC,38.9949,-79.1459
PKB,39.3451,-81.4392
AHH,45.2811,-92.3754
ARV,45.9279,-89.7309
ASX,46.5485,-90.919
ATW,44.2581,-88.5191
AUW,44.9262,-89.6266
CLI,44.6138,-88.7313
CMY,43.9583,-90.7379
CWA,44.7776,-89.6668
EAU,44.8658,-91.4843
EGV,45.9323,-89.2683
ENW,42.5957,-87.9278
ETB,43.4222,-88.1279
FLD,43.7712,-88.4884
GRB,44.4851,-88.1296
GTG,45.7981,-92.6644
HYR,46.0252,-91.4443
ISW,44.3603,-89.839
JVL,42.6203,-89.0416
LNR,43.2117,-90.1816
LSE,43.879,-91.2567
MDF,45.101,-90.3033
MFI,44.6369,-90.1893
MKE,42.9472,-87.8966
MSN,43.1399,-89.3375
MTW,44.1288,-87.6806
MWC,43.1104,-88.0344
OEO,45.31,-92.6919
OSH,43.9844,-88.557
PCD,43.0193,-91.1237
PKF,45.955,-90.4244
PRW,45.543,-90.2793
RAC,42.7606,-87.8152
RHI,45.6312,-89.4675
RIE,45.419,-91.7735
RNH,45.1483,-92.5381
RRL,45.1989,-89.7129
SBM,43.7696,-87.8514
STE,44.5452,-89.5303
SUE,44.8437,-87.4215
SUW,46.6897,-92.0947
UES,43.041,-88.2371
UNU,43.4266,-88.7032
VOK,43.939,-90.2534
XES,42.6149,-88.3896
AFO,42.7112,-110.942
BPI,42.5851,-110.111
BYG,44.3811,-106.722
COD,44.5202,-109.024
CPR,42.908,-106.464
CYS,41.1557,-104.812
DGW,42.7972,-105.386
EAN,42.0555,-104.929
ECS,43.8854,-104.318
EMM,41.8241,-110.557
EVW,41.2748,-111.035
FBR,41.3919,-110.407
GCC,44.3489,-105.539
GEY,44.5168,-108.083
JAC,43.6073,-110.738
LAR,41.3121,-105.675
LND,42.8152,-108.73
LSK,42.7538,-104.405
POY,44.8672,-108.793
PWY,42.7955,-109.807
RIW,43.0642,-108.46
RKS,41.5942,-109.065
RWL,41.8056,-107.2
SAA,41.4449,-106.824
SHR,44.7692,-106.98
THP,43.7136,-108.39
TOR,42.0645,-104.153
WRL,43.9657,-107.951
